{
    "userId" : "01",
    "displayName" : "ambulance 1",
    "phone" : "01",
    "email" : "ambulance01@gmail.com",
    "earnedRatings" : 21,
    "totalRatings" : 25,
    "location" : {
        "type" : "Point",
        "address" : "Datta Shika Lane No 21, 2 Nd Floor, Kondhwa Budruk, Pune - 411048, Near Salve Garden",
        "coordinates" : [
            73.871891,
            18.454660
        ]
    }
}
{
    "userId" : "02",
    "displayName" : "ambulance 2",
    "phone" : "02",
    "email" : "ambulance02@gmail.com",
    "earnedRatings" : 10,
    "totalRatings" : 25,
    "location" : {
        "type" : "Point",
        "address" : "117/118, Deccan Gymkhana, Pune - 411004, Beside Sahyadri Hospital Erandwane",
        "coordinates" : [
            73.828323,
            18.516555
        ]
    }

}
{
    "userId" : "03",
    "displayName" : "ambulance 3",
    "phone" : "03",
    "email" : "ambulance03@gmail.com",
    "earnedRatings" : 15,
    "totalRatings" : 25,
    "location" : {
        "type" : "Point",
        "address" : "Link Road, Power House Chowk, Chinchwad, Pune - 411033, Nr Moraya Multi Hospital,Near Pimpri Goan Bus Stop ",
        "coordinates" : [
            73.791824,
            18.640211
        ]
    }
}
{
    "userId" : "04",
    "displayName" : "ambulance 4",
    "phone" : "04",
    "email" : "ambulance04@gmail.com",
    "earnedRatings" : 11,
    "totalRatings" : 25,
    "location" : {
        "type" : "Point",
        "address" : "Patra Shed No C 218, Chinchwad, Pune - 411033, Near PCMC School Ajanthanagr",
        "coordinates" : [
            77.60547099999997,
            12.975614
        ]
    }
}
{
    "userId" : "05",
    "displayName" : "ambulance 5",
    "phone" : "05",
    "email" : "ambulance@gmail.com",
    "earnedRatings" : 15,
    "totalRatings" : 25,
    "location" : {
        "type" : "Point",
        "address" : "Flat no-B 601, Amar Courtyards, D P Road, Hadapsar, Pune - 411028, Nr Gadital ",
        "coordinates" : [
            77.62047400000006,
            12.972814
        ]
    }
}
{
    "userId" : "06",
    "displayName" : "ambulance 6",
    "phone" : "06",
    "email" : "ambulance06@gmail.com",
    "earnedRatings" : 21,
    "totalRatings" : 25,
    "location" : {
        "type" : "Point",
        "address" : "C 1/9 Dhanlaxmi Park Bhusari Colony, Kothrud, Pune - 411038, Opposite Kothrud Depot",
        "coordinates" : [
            77.62710779999998,
            12.9279232
        ]
    }

}
{
    "userId" : "07",
    "displayName" : "ambulance 7",
    "phone" : "07",
    "email" : "ambulance07@gmail.com",
    "earnedRatings" : 18,
    "totalRatings" : 25,
    "location" : {
        "type" : "Point",
        "address" : "Amri hospital",
        "coordinates" : [
            77.63873160000003,
            12.9609857
        ]
    }
}
